{
"type": "FeatureCollection",
"name": "merged",
"features": [
{ "type": "Feature", "properties": { "id": 12589927, "type": "track", "address": "Error retrieving address", "x": null, "y": null }, "geometry": null },
{ "type": "Feature", "properties": { "id": 630677376, "type": "sauna", "name": "Баня", "address": "Баня, 8А, улица Мира, Яр-Сале, муниципальный округ Ямальский район, Ямало-Ненецкий автономный округ, Уральский федеральный округ, 629700, Россия", "x": 70.846497, "y": 66.859567 }, "geometry": { "type": "Point", "coordinates": [ 70.846497490545431, 66.859567024345964 ] } },
{ "type": "Feature", "properties": { "id": 630677378, "type": "place_of_worship", "name": "Храм Блаженной Ксении Петербургской", "address": "Храм Блаженной Ксении Петербургской, 2, Советская улица, Промзона Южная, Яр-Сале, муниципальный округ Ямальский район, Ямало-Ненецкий автономный округ, Уральский федеральный округ, 629700, Россия", "x": 70.844809, "y": 66.858599 }, "geometry": { "type": "Point", "coordinates": [ 70.844809363076564, 66.85859934921487 ] } },
{ "type": "Feature", "properties": { "id": 630718164, "type": "sports_centre", "name": "Спортивно-оздоровительный центр \"Арктика\"", "address": "Спортивно-оздоровительный центр \"Арктика\", 33, улица Мира, Яр-Сале, муниципальный округ Ямальский район, Ямало-Ненецкий автономный округ, Уральский федеральный округ, 629700, Россия", "x": 70.839054, "y": 66.866368 }, "geometry": { "type": "Point", "coordinates": [ 70.839054011189873, 66.866368135687424 ] } },
{ "type": "Feature", "properties": { "id": 630718166, "type": "ice_rink", "name": "ДЮСШОР \"Лидер\"", "address": "ДЮСШОР \"Лидер\", 42, улица Мира, Яр-Сале, муниципальный округ Ямальский район, Ямало-Ненецкий автономный округ, Уральский федеральный округ, 629700, Россия", "x": 70.840788, "y": 66.866598 }, "geometry": { "type": "Point", "coordinates": [ 70.840787767476328, 66.86659821481264 ] } },
{ "type": "Feature", "properties": { "id": 630962871, "type": "library", "name": "Центральная библиотека", "address": "Центральная библиотека, 6А, улица Мира, Яр-Сале, муниципальный округ Ямальский район, Ямало-Ненецкий автономный округ, Уральский федеральный округ, 629700, Россия", "x": 70.846643, "y": 66.858924 }, "geometry": { "type": "Point", "coordinates": [ 70.846643273632495, 66.858924259331218 ] } },
{ "type": "Feature", "properties": { "id": 630962888, "type": "prison", "address": "2Д, улица Мира, Яр-Сале, муниципальный округ Ямальский район, Ямало-Ненецкий автономный округ, Уральский федеральный округ, 629700, Россия", "x": 70.849502, "y": 66.857218 }, "geometry": { "type": "Point", "coordinates": [ 70.849501861555467, 66.857218214204309 ] } },
{ "type": "Feature", "properties": { "id": 630998727, "type": "pitch", "address": "улица Худи Сэроко, Яр-Сале, муниципальный округ Ямальский район, Ямало-Ненецкий автономный округ, Уральский федеральный округ, 629700, Россия", "x": 70.839134, "y": 66.861359 }, "geometry": { "type": "Point", "coordinates": [ 70.839134050000013, 66.8613589 ] } },
{ "type": "Feature", "properties": { "id": 630998730, "type": "post_office", "name": "Почта России", "address": "Почта России, 19, Советская улица, Промзона Южная, Яр-Сале, муниципальный округ Ямальский район, Ямало-Ненецкий автономный округ, Уральский федеральный округ, 629700, Россия", "x": 70.841092, "y": 66.861346 }, "geometry": { "type": "Point", "coordinates": [ 70.841091600000013, 66.86134615 ] } },
{ "type": "Feature", "properties": { "id": 630998733, "type": "community_centre", "name": "Дом Культуры", "address": "Дом Культуры, 8, улица Худи Сэроко, Яр-Сале, муниципальный округ Ямальский район, Ямало-Ненецкий автономный округ, Уральский федеральный округ, 629700, Россия", "x": 70.840916, "y": 66.860043 }, "geometry": { "type": "Point", "coordinates": [ 70.840916369179112, 66.860042922895715 ] } },
{ "type": "Feature", "properties": { "id": 630998736, "type": "pharmacy", "name": "Аптека", "address": "Аптека, 13А, Советская улица, Промзона Южная, Яр-Сале, муниципальный округ Ямальский район, Ямало-Ненецкий автономный округ, Уральский федеральный округ, 629700, Россия", "x": 70.842372, "y": 66.860312 }, "geometry": { "type": "Point", "coordinates": [ 70.842372180971637, 66.860312098301065 ] } },
{ "type": "Feature", "properties": { "id": 630998737, "type": "playground", "address": "Советская улица, Промзона Южная, Яр-Сале, муниципальный округ Ямальский район, Ямало-Ненецкий автономный округ, Уральский федеральный округ, 629700, Россия", "x": 70.841841, "y": 66.860415 }, "geometry": { "type": "Point", "coordinates": [ 70.8418411, 66.860415 ] } },
{ "type": "Feature", "properties": { "id": 631016296, "type": "bank", "name": "Сбербанк", "address": "Сбербанк, 14А, Советская улица, Промзона Южная, Яр-Сале, муниципальный округ Ямальский район, Ямало-Ненецкий автономный округ, Уральский федеральный округ, 629700, Россия", "x": 70.842076, "y": 66.861645 }, "geometry": { "type": "Point", "coordinates": [ 70.842076424427802, 66.861644617819323 ] } },
{ "type": "Feature", "properties": { "id": 631016300, "type": "police", "address": "7, улица Мира, Яр-Сале, муниципальный округ Ямальский район, Ямало-Ненецкий автономный округ, Уральский федеральный округ, 629700, Россия", "x": 70.843507, "y": 66.860952 }, "geometry": { "type": "Point", "coordinates": [ 70.843506749999989, 66.860952 ] } },
{ "type": "Feature", "properties": { "id": 631016319, "type": "townhall", "name": "Администрация муниципального образования Яр-Салинское", "address": "Администрация муниципального образования Яр-Салинское, 6, улица Худи Сэроко, Яр-Сале, муниципальный округ Ямальский район, Ямало-Ненецкий автономный округ, Уральский федеральный округ, 629700, Россия", "x": 70.841489, "y": 66.859608 }, "geometry": { "type": "Point", "coordinates": [ 70.841489172466808, 66.859607916090965 ] } },
{ "type": "Feature", "properties": { "id": 631016351, "type": "kindergarten", "name": "Детский сад \"Солнышко\" (корпус-2)", "address": "10, квартал Полярный, Яр-Сале, муниципальный округ Ямальский район, Ямало-Ненецкий автономный округ, Уральский федеральный округ, 629700, Россия", "x": 70.83652, "y": 66.868622 }, "geometry": { "type": "Point", "coordinates": [ 70.83651973719941, 66.868621691921305 ] } },
{ "type": "Feature", "properties": { "id": 631100061, "type": "hospital", "name": "Роддом", "address": "Роддом, 21А, улица Худи Сэроко, Яр-Сале, муниципальный округ Ямальский район, Ямало-Ненецкий автономный округ, Уральский федеральный округ, 629700, Россия", "x": 70.839417, "y": 66.860087 }, "geometry": { "type": "Point", "coordinates": [ 70.839417, 66.8600869 ] } },
{ "type": "Feature", "properties": { "id": 700378760, "type": "park", "name": "Парк Победы", "address": "Яр-Сале, муниципальный округ Ямальский район, Ямало-Ненецкий автономный округ, Уральский федеральный округ, 629700, Россия", "x": 70.844386, "y": 66.859856 }, "geometry": { "type": "Point", "coordinates": [ 70.844386310706128, 66.859856275070072 ] } },
{ "type": "Feature", "properties": { "id": 700379412, "type": "park", "name": "Город мастеров", "address": "улица Худи Сэроко, Яр-Сале, муниципальный округ Ямальский район, Ямало-Ненецкий автономный округ, Уральский федеральный округ, 629700, Россия", "x": 70.845856, "y": 66.857334 }, "geometry": { "type": "Point", "coordinates": [ 70.845855770401428, 66.857334109489173 ] } },
{ "type": "Feature", "properties": { "id": 807534137, "type": "park", "name": "Парк Спорта", "address": "Молодёжная улица, Яр-Сале, муниципальный округ Ямальский район, Ямало-Ненецкий автономный округ, Уральский федеральный округ, 629700, Россия", "x": 70.839651, "y": 66.866114 }, "geometry": { "type": "Point", "coordinates": [ 70.839651179414659, 66.866113886060774 ] } },
{ "type": "Feature", "properties": { "id": 807534138, "type": "playground", "address": "улица Кугаевского, Яр-Сале, муниципальный округ Ямальский район, Ямало-Ненецкий автономный округ, Уральский федеральный округ, 629700, Россия", "x": 70.828798, "y": 66.866301 }, "geometry": { "type": "Point", "coordinates": [ 70.828798230844882, 66.866300970324474 ] } },
{ "type": "Feature", "properties": { "id": 807534139, "type": "pitch", "address": "улица Кугаевского, Яр-Сале, муниципальный округ Ямальский район, Ямало-Ненецкий автономный округ, Уральский федеральный округ, 629700, Россия", "x": 70.829748, "y": 66.866391 }, "geometry": { "type": "Point", "coordinates": [ 70.829747932547036, 66.866391049746511 ] } },
{ "type": "Feature", "properties": { "id": 807534140, "type": "park", "name": "Парк Знаний", "address": "Школа-интернат им. Василия Давыдова, улица Мира, Яр-Сале, муниципальный округ Ямальский район, Ямало-Ненецкий автономный округ, Уральский федеральный округ, 629700, Россия", "x": 70.844964, "y": 66.860817 }, "geometry": { "type": "Point", "coordinates": [ 70.844963588457119, 66.860817078342578 ] } },
{ "type": "Feature", "properties": { "id": 807534141, "type": "park", "address": "Яр-Сале, муниципальный округ Ямальский район, Ямало-Ненецкий автономный округ, Уральский федеральный округ, 629700, Россия", "x": 70.841662, "y": 66.859865 }, "geometry": { "type": "Point", "coordinates": [ 70.841661817677178, 66.859864664978772 ] } },
{ "type": "Feature", "properties": { "id": 930709904, "type": "pitch", "address": "Советская улица, Промзона Южная, Яр-Сале, муниципальный округ Ямальский район, Ямало-Ненецкий автономный округ, Уральский федеральный округ, 629700, Россия", "x": 70.84988, "y": 66.860555 }, "geometry": { "type": "Point", "coordinates": [ 70.8498799, 66.86055505 ] } },
{ "type": "Feature", "properties": { "id": 930742343, "type": "hospital", "name": "Стационар", "address": "Стационар, 19, улица Худи Сэроко, Яр-Сале, муниципальный округ Ямальский район, Ямало-Ненецкий автономный округ, Уральский федеральный округ, 629700, Россия", "x": 70.840201, "y": 66.859188 }, "geometry": { "type": "Point", "coordinates": [ 70.840201272900927, 66.859188236783012 ] } },
{ "type": "Feature", "properties": { "id": 930746686, "type": "kindergarten", "name": "Детский сад \"Солнышко\" (корпус-1)", "address": "7, Советская улица, Промзона Южная, Яр-Сале, муниципальный округ Ямальский район, Ямало-Ненецкий автономный округ, Уральский федеральный округ, 629700, Россия", "x": 70.842949, "y": 66.859267 }, "geometry": { "type": "Point", "coordinates": [ 70.842949357913312, 66.859266703531517 ] } },
{ "type": "Feature", "properties": { "id": 930746689, "type": "hospital", "name": "Яр-Салинская центральная районная больница", "address": "Яр-Салинская центральная районная больница, улица Фёдорова, Яр-Сале, муниципальный округ Ямальский район, Ямало-Ненецкий автономный округ, Уральский федеральный округ, 629700, Россия", "x": 70.840288, "y": 66.859239 }, "geometry": { "type": "Point", "coordinates": [ 70.840288416538598, 66.859239273376744 ] } },
{ "type": "Feature", "properties": { "id": 930748232, "type": "parking", "address": "улица Мира, Яр-Сале, муниципальный округ Ямальский район, Ямало-Ненецкий автономный округ, Уральский федеральный округ, 629700, Россия", "x": 70.845333, "y": 66.860128 }, "geometry": { "type": "Point", "coordinates": [ 70.845332604285332, 66.860127969789289 ] } },
{ "type": "Feature", "properties": { "id": 930752702, "type": "hospital", "name": "Туберкулёзное отделение", "address": "Туберкулёзное отделение, улица Худи Сэроко, Яр-Сале, муниципальный округ Ямальский район, Ямало-Ненецкий автономный округ, Уральский федеральный округ, 629700, Россия", "x": 70.831483, "y": 66.8677 }, "geometry": { "type": "Point", "coordinates": [ 70.831483451988078, 66.867699680626288 ] } },
{ "type": "Feature", "properties": { "id": 930759009, "type": "parking", "address": "улица Худи Сэроко, Яр-Сале, муниципальный округ Ямальский район, Ямало-Ненецкий автономный округ, Уральский федеральный округ, 629700, Россия", "x": 70.841144, "y": 66.85954 }, "geometry": { "type": "Point", "coordinates": [ 70.84114381475743, 66.859540010675445 ] } },
{ "type": "Feature", "properties": { "id": 930871451, "type": "parking", "address": "Советская улица, Промзона Южная, Яр-Сале, муниципальный округ Ямальский район, Ямало-Ненецкий автономный округ, Уральский федеральный округ, 629700, Россия", "x": 70.832233, "y": 66.869524 }, "geometry": { "type": "Point", "coordinates": [ 70.832233, 66.869523700000016 ] } },
{ "type": "Feature", "properties": { "id": 930871452, "type": "parking", "address": "Советская улица, Промзона Южная, Яр-Сале, муниципальный округ Ямальский район, Ямало-Ненецкий автономный округ, Уральский федеральный округ, 629700, Россия", "x": 70.833136, "y": 66.869707 }, "geometry": { "type": "Point", "coordinates": [ 70.833135550000023, 66.86970675000002 ] } },
{ "type": "Feature", "properties": { "id": 930875735, "type": "playground", "address": "Молодёжная улица, Яр-Сале, муниципальный округ Ямальский район, Ямало-Ненецкий автономный округ, Уральский федеральный округ, 629700, Россия", "x": 70.837383, "y": 66.869495 }, "geometry": { "type": "Point", "coordinates": [ 70.837383431160276, 66.869495219208517 ] } },
{ "type": "Feature", "properties": { "id": 930875989, "type": "parking", "address": "Советская улица, Промзона Южная, Яр-Сале, муниципальный округ Ямальский район, Ямало-Ненецкий автономный округ, Уральский федеральный округ, 629700, Россия", "x": 70.833446, "y": 66.868848 }, "geometry": { "type": "Point", "coordinates": [ 70.833446292292592, 66.868848057933818 ] } },
{ "type": "Feature", "properties": { "id": 930875990, "type": "parking", "address": "Советская улица, Промзона Южная, Яр-Сале, муниципальный округ Ямальский район, Ямало-Ненецкий автономный округ, Уральский федеральный округ, 629700, Россия", "x": 70.834387, "y": 66.869027 }, "geometry": { "type": "Point", "coordinates": [ 70.834386738661692, 66.869026540603741 ] } },
{ "type": "Feature", "properties": { "id": 930921676, "type": "school", "address": "14, улица Худи Сэроко, Яр-Сале, муниципальный округ Ямальский район, Ямало-Ненецкий автономный округ, Уральский федеральный округ, 629700, Россия", "x": 70.84003, "y": 66.861512 }, "geometry": { "type": "Point", "coordinates": [ 70.840030263399015, 66.861512392027322 ] } },
{ "type": "Feature", "properties": { "id": 931036283, "type": "playground", "address": "Советская улица, Промзона Южная, Яр-Сале, муниципальный округ Ямальский район, Ямало-Ненецкий автономный округ, Уральский федеральный округ, 629700, Россия", "x": 70.837218, "y": 66.864431 }, "geometry": { "type": "Point", "coordinates": [ 70.837218168510105, 66.864431201897034 ] } },
{ "type": "Feature", "properties": { "id": 931454867, "type": "pitch", "address": "Советская улица, Промзона Южная, Яр-Сале, муниципальный округ Ямальский район, Ямало-Ненецкий автономный округ, Уральский федеральный округ, 629700, Россия", "x": 70.84922, "y": 66.860288 }, "geometry": { "type": "Point", "coordinates": [ 70.849220082088536, 66.860287796062423 ] } },
{ "type": "Feature", "properties": { "id": 931454873, "type": "parking", "address": "Советская улица, Промзона Южная, Яр-Сале, муниципальный округ Ямальский район, Ямало-Ненецкий автономный округ, Уральский федеральный округ, 629700, Россия", "x": 70.847492, "y": 66.857209 }, "geometry": { "type": "Point", "coordinates": [ 70.847492088738491, 66.857208667025105 ] } },
{ "type": "Feature", "properties": { "id": 931454874, "type": "parking", "address": "Советская улица, Промзона Южная, Яр-Сале, муниципальный округ Ямальский район, Ямало-Ненецкий автономный округ, Уральский федеральный округ, 629700, Россия", "x": 70.848027, "y": 66.856964 }, "geometry": { "type": "Point", "coordinates": [ 70.848026804579064, 66.856964027686416 ] } },
{ "type": "Feature", "properties": { "id": 931473317, "type": "school", "name": "Школа-интернат им. Василия Давыдова", "address": "Школа-интернат им. Василия Давыдова, улица Мира, Яр-Сале, муниципальный округ Ямальский район, Ямало-Ненецкий автономный округ, Уральский федеральный округ, 629700, Россия", "x": 70.846335, "y": 66.861331 }, "geometry": { "type": "Point", "coordinates": [ 70.846334695180602, 66.861330751897754 ] } },
{ "type": "Feature", "properties": { "id": 931484559, "type": "playground", "address": "улица Фёдорова, Яр-Сале, муниципальный округ Ямальский район, Ямало-Ненецкий автономный округ, Уральский федеральный округ, 629700, Россия", "x": 70.832229, "y": 66.864327 }, "geometry": { "type": "Point", "coordinates": [ 70.832228862127067, 66.864326617599318 ] } },
{ "type": "Feature", "properties": { "id": 931484563, "type": "parking", "address": "Советская улица, Промзона Южная, Яр-Сале, муниципальный округ Ямальский район, Ямало-Ненецкий автономный округ, Уральский федеральный округ, 629700, Россия", "x": 70.841976, "y": 66.861288 }, "geometry": { "type": "Point", "coordinates": [ 70.841976379158041, 66.861287876280002 ] } },
{ "type": "Feature", "properties": { "id": 932749436, "type": "smoking_area", "address": "улица Мира, Яр-Сале, муниципальный округ Ямальский район, Ямало-Ненецкий автономный округ, Уральский федеральный округ, 629700, Россия", "x": 70.844866, "y": 66.859404 }, "geometry": { "type": "Point", "coordinates": [ 70.844866400000015, 66.859404399999988 ] } },
{ "type": "Feature", "properties": { "id": 932749437, "type": "parking", "address": "Молодёжная улица, Яр-Сале, муниципальный округ Ямальский район, Ямало-Ненецкий автономный округ, Уральский федеральный округ, 629700, Россия", "x": 70.839558, "y": 66.866404 }, "geometry": { "type": "Point", "coordinates": [ 70.839557583856049, 66.86640385999776 ] } },
{ "type": "Feature", "properties": { "id": 5955171328, "type": "driving_school", "address": "16А, Советская улица, Промзона Южная, Яр-Сале, муниципальный округ Ямальский район, Ямало-Ненецкий автономный округ, Уральский федеральный округ, 629700, Россия", "x": 70.841389, "y": 66.862046 }, "geometry": { "type": "Point", "coordinates": [ 70.8413892, 66.862046 ] } },
{ "type": "Feature", "properties": { "id": 5957466388, "type": "hotel", "name": "ЯЛЭМД", "address": "ЯЛЭМД, 4, Советская улица, Промзона Южная, Яр-Сале, муниципальный округ Ямальский район, Ямало-Ненецкий автономный округ, Уральский федеральный округ, 629700, Россия", "x": 70.844556, "y": 66.859157 }, "geometry": { "type": "Point", "coordinates": [ 70.844556, 66.8591566 ] } },
{ "type": "Feature", "properties": { "id": 5957632594, "type": "cafe", "name": "Кафе \"АЙС\"", "address": "Кафе \"АЙС\", 33, улица Мира, Яр-Сале, муниципальный округ Ямальский район, Ямало-Ненецкий автономный округ, Уральский федеральный округ, 629700, Россия", "x": 70.839189, "y": 66.86621 }, "geometry": { "type": "Point", "coordinates": [ 70.8391887, 66.8662097 ] } },
{ "type": "Feature", "properties": { "id": 5958042478, "type": "pharmacy", "address": "31, Советская улица, Промзона Южная, Яр-Сале, муниципальный округ Ямальский район, Ямало-Ненецкий автономный округ, Уральский федеральный округ, 629700, Россия", "x": 70.838928, "y": 66.863341 }, "geometry": { "type": "Point", "coordinates": [ 70.8389283, 66.8633406 ] } },
{ "type": "Feature", "properties": { "id": 5958042775, "type": "cafe", "name": "Жар-Пицца", "address": "Жар-Пицца, 19, Советская улица, Промзона Южная, Яр-Сале, муниципальный округ Ямальский район, Ямало-Ненецкий автономный округ, Уральский федеральный округ, 629700, Россия", "x": 70.841197, "y": 66.861311 }, "geometry": { "type": "Point", "coordinates": [ 70.8411967, 66.8613105 ] } },
{ "type": "Feature", "properties": { "id": 5958043097, "type": "community_centre", "name": "Центр национальных культур", "address": "Центр национальных культур, 17, Советская улица, Промзона Южная, Яр-Сале, муниципальный округ Ямальский район, Ямало-Ненецкий автономный округ, Уральский федеральный округ, 629700, Россия", "x": 70.841149, "y": 66.860969 }, "geometry": { "type": "Point", "coordinates": [ 70.8411494, 66.8609695 ] } },
{ "type": "Feature", "properties": { "id": 5958296472, "type": "pharmacy", "address": "Советская улица, Промзона Южная, Яр-Сале, муниципальный округ Ямальский район, Ямало-Ненецкий автономный округ, Уральский федеральный округ, 629700, Россия", "x": 70.834387, "y": 66.86873 }, "geometry": { "type": "Point", "coordinates": [ 70.8343869, 66.8687304 ] } },
{ "type": "Feature", "properties": { "id": 5959718745, "type": "pharmacy", "name": "Градусник", "address": "Градусник, улица Худи Сэроко, Яр-Сале, муниципальный округ Ямальский район, Ямало-Ненецкий автономный округ, Уральский федеральный округ, 629700, Россия", "x": 70.836634, "y": 66.861959 }, "geometry": { "type": "Point", "coordinates": [ 70.8366341, 66.8619591 ] } },
{ "type": "Feature", "properties": { "id": 6800436089, "type": "memorial", "name": "Глобус Знаний", "address": "Глобус Знаний, улица Мира, Яр-Сале, муниципальный округ Ямальский район, Ямало-Ненецкий автономный округ, Уральский федеральный округ, 629700, Россия", "x": 70.84545, "y": 66.860633 }, "geometry": { "type": "Point", "coordinates": [ 70.8454496, 66.8606333 ] } },
{ "type": "Feature", "properties": { "id": 6800436132, "type": "memorial", "name": "В. И. Ленину", "address": "В. И. Ленину, улица Худи Сэроко, Яр-Сале, муниципальный округ Ямальский район, Ямало-Ненецкий автономный округ, Уральский федеральный округ, 629700, Россия", "x": 70.840605, "y": 66.860322 }, "geometry": { "type": "Point", "coordinates": [ 70.8406053, 66.8603225 ] } },
{ "type": "Feature", "properties": { "id": 6800436145, "type": "hotel", "address": "22, улица Мира, Яр-Сале, муниципальный округ Ямальский район, Ямало-Ненецкий автономный округ, Уральский федеральный округ, 629700, Россия", "x": 70.844209, "y": 66.862321 }, "geometry": { "type": "Point", "coordinates": [ 70.844209, 66.8623213 ] } },
{ "type": "Feature", "properties": { "id": 6806715394, "type": "ferry_terminal", "address": "Советская улица, Промзона Южная, Яр-Сале, муниципальный округ Ямальский район, Ямало-Ненецкий автономный округ, Уральский федеральный округ, 629700, Россия", "x": 70.852675, "y": 66.855922 }, "geometry": { "type": "Point", "coordinates": [ 70.8526746, 66.8559218 ] } },
{ "type": "Feature", "properties": { "id": 8629857343, "type": "doctors", "name": "Поликлиника", "address": "Поликлиника, 21, улица Худи Сэроко, Яр-Сале, муниципальный округ Ямальский район, Ямало-Ненецкий автономный округ, Уральский федеральный округ, 629700, Россия", "x": 70.84015, "y": 66.85974 }, "geometry": { "type": "Point", "coordinates": [ 70.8401495, 66.8597395 ] } },
{ "type": "Feature", "properties": { "id": 8632307335, "type": "fuel", "address": "Советская улица, Промзона Южная, Яр-Сале, муниципальный округ Ямальский район, Ямало-Ненецкий автономный округ, Уральский федеральный округ, 629700, Россия", "x": 70.830478, "y": 66.869964 }, "geometry": { "type": "Point", "coordinates": [ 70.8304775, 66.8699639 ] } },
{ "type": "Feature", "properties": { "id": 8646216907, "type": "restaurant", "name": "Ялэмд", "address": "Ялэмд, 4, Советская улица, Промзона Южная, Яр-Сале, муниципальный округ Ямальский район, Ямало-Ненецкий автономный округ, Уральский федеральный округ, 629700, Россия", "x": 70.844429, "y": 66.859093 }, "geometry": { "type": "Point", "coordinates": [ 70.844429, 66.8590927 ] } },
{ "type": "Feature", "properties": { "id": 8646216908, "type": "fitness_centre", "name": "Арктика", "address": "Арктика, 33, улица Мира, Яр-Сале, муниципальный округ Ямальский район, Ямало-Ненецкий автономный округ, Уральский федеральный округ, 629700, Россия", "x": 70.839163, "y": 66.86646 }, "geometry": { "type": "Point", "coordinates": [ 70.8391632, 66.8664601 ] } }
]
}
